City_ID,City,Lat,Lng,Max Temp,Humidity,Cloudiness,Wind Speed,Country,Date
0,ust-nera,64.5667,143.2,19.22,96,94,4.0,RU,1696897050
1,college,64.8569,-147.8028,33.75,76,100,8.05,US,1696897050
2,eyl,7.9803,49.8164,79.56,80,90,9.24,SO,1696897051
3,port mathurin,-19.6833,63.4167,74.52,78,57,17.05,MU,1696897051
4,ilulissat,69.2167,-51.1,28.42,64,100,10.36,GL,1696897051
5,alofi,-19.0595,-169.9187,80.49,65,40,11.5,NU,1696897052
6,albany,42.6001,-73.9662,50.65,71,85,5.53,US,1696896937
7,igarka,67.4667,86.5833,45.37,93,96,18.84,RU,1696897052
8,along,28.1667,94.7667,66.74,97,67,1.61,IN,1696897053
9,esquel,-42.9,-71.3167,42.51,83,95,9.53,AR,1696897053
10,invercargill,-46.4,168.35,50.02,61,72,18.99,NZ,1696896888
11,kingston,17.997,-76.7936,81.21,99,93,1.01,JM,1696896477
12,canutama,-6.5339,-64.3831,91.18,30,76,3.31,BR,1696897054
13,edinburgh of the seven seas,-37.0676,-12.3116,56.37,94,98,4.61,SH,1696897054
14,willowmore,-33.2926,23.4895,47.84,92,69,8.77,ZA,1696897054
15,bethel,41.3712,-73.414,55.71,77,100,3.44,US,1696897055
16,nchelenge,-9.3451,28.734,73.89,67,28,3.24,ZM,1696897055
17,port douglas,-16.4833,145.4667,75.83,68,53,11.07,AU,1696897055
18,palembang,-2.9167,104.7458,78.89,89,75,2.3,ID,1696897056
19,puerto natales,-51.7236,-72.4875,34.41,79,23,12.64,CL,1696897056
20,port elizabeth,-33.918,25.5701,58.1,93,100,5.99,ZA,1696897057
21,lebu,-37.6167,-73.65,51.19,86,100,11.16,CL,1696897040
22,papatowai,-46.5619,169.4708,48.97,57,61,20.4,NZ,1696897057
23,margaret river,-33.95,115.0667,57.78,61,89,12.41,AU,1696897057
24,blackmans bay,-43.0167,147.3167,59.52,67,86,2.06,AU,1696897058
25,port-aux-francais,-49.35,70.2167,36.19,77,56,39.24,TF,1696897058
26,piedecuesta,6.9879,-73.0495,72.72,89,84,2.19,CO,1696897058
27,machali,-34.1833,-70.6667,58.14,78,68,0.92,CL,1696897038
28,hawaiian paradise park,19.5933,-154.9731,83.71,72,0,11.5,US,1696897059
29,tralee,52.2704,-9.7026,59.38,65,100,5.55,IE,1696897059
30,coruripe,-10.1256,-36.1756,72.46,88,11,5.3,BR,1696896773
31,canton,23.1167,113.25,71.87,87,100,7.92,CN,1696896965
32,stanley,54.868,-1.6985,56.71,95,40,5.75,GB,1696896681
33,jamestown,42.097,-79.2353,46.04,93,100,5.75,US,1696896683
34,vicar,36.8316,-2.6427,68.22,76,19,3.74,ES,1696897061
35,kabompo,-13.5927,24.2008,67.06,43,22,0.98,ZM,1696897061
36,prince rupert,54.3161,-130.3201,57.29,79,75,13.8,CA,1696896921
37,antsiranana,-12.2787,49.2917,73.11,84,98,13.62,MG,1696897062
38,adamstown,-25.066,-130.1015,67.35,66,12,9.78,PN,1696896776
39,tiksi,71.6872,128.8694,16.03,95,100,7.47,RU,1696897063
40,praia da vitoria,38.7333,-27.0667,70.05,83,40,22.97,PT,1696897063
41,mayo-belwa,9.05,12.05,78.82,64,59,2.51,NG,1696897063
42,constantia,44.1833,28.65,54.7,66,85,12.5,RO,1696896970
43,kabo,7.6994,18.629,72.12,94,97,1.3,CF,1696897064
44,bay city,43.5945,-83.8889,51.8,53,100,14.97,US,1696897044
45,klaksvik,62.2266,-6.589,50.92,96,100,28.23,FO,1696897065
46,kiama,-34.6833,150.8667,66.0,80,96,5.19,AU,1696896982
47,hastings,50.8552,0.5729,62.29,43,91,7.65,GB,1696897065
48,longyearbyen,78.2186,15.6401,21.04,68,20,12.66,SJ,1696897067
49,waitangi,-43.9535,-176.5597,54.82,72,35,11.01,NZ,1696897067
50,walvis bay,-22.9575,14.5053,56.08,90,58,5.61,NA,1696897067
51,punta arenas,-53.15,-70.9167,35.11,74,16,20.38,CL,1696896813
52,ponta delgada,37.7333,-25.6667,70.52,88,20,11.5,PT,1696897068
53,anadyr,64.75,177.4833,32.5,80,100,2.24,RU,1696897068
54,alta,69.9689,23.2717,29.46,85,75,7.0,NO,1696897069
55,isafjordur,66.0755,-23.124,36.36,98,73,22.93,IS,1696897069
56,iqaluit,63.7506,-68.5145,29.93,80,75,8.05,CA,1696897069
57,barinas,8.6226,-70.2075,76.78,89,46,4.54,VE,1696897070
58,mochudi,-24.4167,26.15,73.99,68,49,8.19,BW,1696897070
59,puerto ayora,-0.7393,-90.3518,75.54,94,51,5.99,EC,1696897070
60,hengchun,22.0042,120.7439,80.82,81,34,15.59,TW,1696897071
61,tapes,-30.6733,-51.3958,60.89,88,0,7.74,BR,1696896918
62,glace bay,46.1969,-59.957,53.78,91,40,3.0,CA,1696897071
63,makinsk,52.6292,70.4169,54.05,50,13,17.05,KZ,1696897072
64,ribeira grande,38.5167,-28.7,70.77,85,20,18.01,PT,1696897072
65,ust'-barguzin,53.45,108.9833,45.09,85,98,3.0,RU,1696897072
66,thompson,55.7435,-97.8558,44.76,76,20,2.3,CA,1696897073
67,mirabad,30.4362,61.8383,74.59,16,0,2.86,AF,1696897073
68,atafu village,-8.5421,-172.5159,84.51,71,57,13.33,TK,1696897073
69,luderitz,-26.6481,15.1594,57.78,90,49,6.11,NA,1696897074
70,pimentel,-6.8367,-79.9342,71.89,73,20,18.41,PE,1696897074
71,saint-francois,46.4154,3.9054,49.44,100,47,1.14,FR,1696897074
72,vorgashor,67.5833,63.95,34.34,97,100,12.46,RU,1696897075
73,tura,25.5198,90.2201,72.79,84,91,2.66,IN,1696897075
74,zouerate,22.7187,-12.4521,88.83,14,8,14.56,MR,1696897075
75,yellowknife,62.456,-114.3525,58.41,74,20,11.5,CA,1696897076
76,pangody,65.85,74.4859,38.82,89,56,17.31,RU,1696897076
77,georgetown,5.4112,100.3354,82.33,92,20,3.44,MY,1696897001
78,ushuaia,-54.8,-68.3,31.66,93,100,25.32,AR,1696897077
79,palasa,18.7667,84.4167,76.68,82,64,4.21,IN,1696897077
80,kupang,-10.1667,123.5833,84.78,74,20,2.3,ID,1696896929
81,avarua,-21.2078,-159.775,80.65,89,75,5.75,CK,1696897078
82,grytviken,-54.2811,-36.5092,32.4,73,5,9.57,GS,1696897078
83,lata,40.1629,-8.3327,62.92,46,9,3.33,PT,1696897078
84,st. john's,47.5649,-52.7093,49.96,97,100,6.91,CA,1696896882
85,olonkinbyen,70.9221,-8.7187,35.42,95,97,15.86,SJ,1696897079
86,darwin,-12.4611,130.8418,86.9,62,20,6.91,AU,1696897027
87,hilo,19.7297,-155.09,83.93,67,0,11.5,US,1696896883
88,tarrafal de sao nicolau,16.5667,-24.3667,80.71,78,67,8.23,CV,1696897080
89,fale old settlement,-9.3852,-171.2468,83.79,77,100,14.41,TK,1696897080
90,touros,-5.1989,-35.4608,78.06,79,2,17.31,BR,1696896836
91,aykhal,66.0,111.5,37.08,98,93,14.0,RU,1696897081
92,arraial do cabo,-22.9661,-42.0278,73.36,88,100,9.22,BR,1696896982
93,san patricio,28.017,-97.5169,78.64,69,98,5.95,US,1696897081
94,malmberget,67.1753,20.6549,16.36,93,2,6.91,SE,1696897082
95,lihue,21.9789,-159.3672,87.04,65,20,13.8,US,1696897082
96,avezzano,42.0402,13.4388,67.62,67,40,1.99,IT,1696897083
97,midvagur,62.0511,-7.1939,50.83,100,100,21.85,FO,1696897083
98,qamdo,31.1667,97.2333,26.85,87,18,4.09,CN,1696897083
99,mandali,33.7499,45.5541,82.45,20,43,6.26,IQ,1696897084
100,tomatlan,19.9333,-105.25,77.05,93,100,2.64,MX,1696897084
101,hemsby,52.6971,1.6918,58.37,95,95,8.95,GB,1696897084
102,iskateley,67.6803,53.1512,34.02,75,94,14.0,RU,1696897085
103,mahajanga,-15.7167,46.3167,75.51,85,24,0.18,MG,1696897085
104,klyuchi,52.2667,79.1667,55.27,62,88,9.37,RU,1696897085
105,ketchikan,55.3422,-131.6461,55.38,87,100,8.05,US,1696896981
106,qaqortoq,60.7167,-46.0333,39.0,69,55,7.49,GL,1696897086
107,sao raimundo das mangabeiras,-7.0219,-45.4811,85.98,30,22,4.94,BR,1696897086
108,burutu,5.3509,5.5076,77.83,90,100,3.18,NG,1696897087
109,hamilton,39.1834,-84.5333,56.71,56,20,8.01,US,1696896952
110,rio branco,-9.9747,-67.81,75.81,94,75,12.66,BR,1696896951
111,marilia,-22.2139,-49.9458,66.78,80,22,3.15,BR,1696897016
112,brookings,44.3114,-96.7984,51.8,63,0,4.61,US,1696897088
113,vorkuta,67.5,64.0,34.79,97,100,12.53,RU,1696897088
114,guadalupe victoria,32.2869,-115.105,102.94,17,5,12.08,MX,1696897088
115,uturoa,-16.7333,-151.4333,78.6,70,81,14.99,PF,1696897089
116,westport,41.1415,-73.3579,57.09,68,100,6.91,US,1696897089
117,mount isa,-20.7333,139.5,82.17,34,21,10.36,AU,1696897089
118,casablanca,33.5928,-7.6192,73.33,88,48,0.92,MA,1696897090
119,kodiak,57.79,-152.4072,47.71,49,0,18.41,US,1696897090
120,yoko,5.5333,12.3167,65.48,98,100,2.21,CM,1696897090
121,mankono,8.0586,-6.1897,70.52,95,77,0.34,CI,1696897091
122,kharovsk,59.9642,40.1912,34.86,90,100,7.76,RU,1696897091
123,severo-yeniseyskiy,60.3725,93.0408,46.58,92,100,8.01,RU,1696897091
124,kimbe,-5.5502,150.1429,90.64,55,31,3.33,PG,1696897092
125,rypin,53.066,19.4094,41.56,85,26,6.26,PL,1696897092
126,ogwashi-uku,6.1782,6.5243,73.44,98,77,3.58,NG,1696897092
127,fonte boa,-2.4959,-66.2662,88.39,33,48,2.55,BR,1696897093
128,mil'kovo,55.6078,37.7956,36.99,81,100,11.45,RU,1696897093
129,talnakh,69.4865,88.3972,43.21,99,100,8.68,RU,1696897093
130,pativilca,-10.7,-77.7833,65.12,88,96,7.47,PE,1696897094
131,rio grande,-32.035,-52.0986,60.91,85,0,10.18,BR,1696897094
132,inarajan village,13.2736,144.7484,84.34,93,99,20.65,GU,1696897094
133,brownfield,33.1812,-102.2744,80.38,29,0,7.7,US,1696897095
134,stovring,56.8854,9.8384,40.78,93,26,7.96,DK,1696897095
135,dudinka,69.4058,86.1778,45.68,89,93,21.0,RU,1696897082
136,bredasdorp,-34.5322,20.0403,54.95,93,44,10.92,ZA,1696897096
137,praia,14.9215,-23.5087,81.14,94,20,6.91,CV,1696897096
138,katima mulilo,-17.5,24.2667,77.47,26,17,5.66,NA,1696897097
139,west island,-12.1568,96.8225,78.78,78,100,14.97,CC,1696897097
140,qarazhal,48.0078,70.7903,56.7,51,41,15.32,KZ,1696897097
141,daru,-9.0763,143.2092,78.13,80,98,13.87,PG,1696897098
142,opuwo,-18.0607,13.84,69.89,30,79,2.19,NA,1696897098
143,kirensk,57.7853,108.1119,45.01,94,18,4.0,RU,1696897099
144,aasiaat,68.7098,-52.8699,28.0,84,100,8.88,GL,1696897099
145,tobelo,1.7284,128.0095,83.73,67,99,4.07,ID,1696897100
146,nuku'alofa,-21.1333,-175.2,77.34,57,20,9.22,TO,1696897100
147,afaahiti,-17.75,-149.2833,82.27,75,61,15.03,PF,1696897100
148,gadzhiyevo,69.2551,33.3362,31.6,80,99,14.65,RU,1696897101
149,pariaman,-0.619,100.12,75.25,87,35,1.7,ID,1696897101
150,motygino,58.1831,94.7592,48.78,93,70,5.01,RU,1696897101
151,el alto,-4.2714,-81.2147,67.66,86,71,15.08,PE,1696897102
152,vetlanda,57.4289,15.0776,40.68,93,98,3.53,SE,1696897102
153,villa ojo de agua,-29.5,-63.6938,69.8,21,0,10.87,AR,1696897102
154,penzance,50.1186,-5.5371,59.68,93,81,6.8,GB,1696897103
155,rio de janeiro,-22.9028,-43.2075,75.2,80,100,11.5,BR,1696897103
156,sao vicente,-23.9631,-46.3919,73.58,26,94,4.41,BR,1696896964
157,fort st. john,56.2499,-120.8529,60.69,51,75,5.75,CA,1696896812
158,rottingdean,50.8098,-0.0594,62.19,81,87,3.0,GB,1696897104
159,mananjary,-21.2167,48.3333,68.86,94,18,6.69,MG,1696897105
160,kem',64.9555,34.5793,33.13,83,100,8.72,RU,1696897105
161,labytnangi,66.6572,66.4183,41.05,94,100,6.53,RU,1696897105
162,sanya,18.2431,109.505,80.76,83,75,4.47,CN,1696897105
163,thunder bay,48.4001,-89.3168,39.18,87,100,10.36,CA,1696897106
164,wenchang,30.904,118.4887,65.64,80,90,3.53,CN,1696897106
165,pisco,-13.7,-76.2167,65.01,82,0,16.11,PE,1696897107
166,amga,60.8953,131.9608,30.97,89,100,3.0,RU,1696897107
167,ouesso,1.6136,16.0517,70.66,94,99,2.04,CG,1696897108
168,ceeldheer,3.8488,47.1806,78.37,82,84,13.49,SO,1696897108
169,baro,8.6,6.4167,76.62,91,80,2.19,NG,1696897109
170,portland,45.5234,-122.6762,63.84,88,100,5.99,US,1696896684
171,keflavik,64.0049,-22.5624,39.11,87,40,29.93,IS,1696897109
172,port alfred,-33.5906,26.891,56.17,96,100,9.66,ZA,1696897110
173,hermanus,-34.4187,19.2345,57.52,83,34,18.61,ZA,1696897110
174,bilibino,68.0546,166.4372,16.95,94,100,0.92,RU,1696897110
175,myanaung,18.2833,95.3167,75.25,97,100,2.42,MM,1696897111
176,khanty-mansiysk,61.0042,69.0019,37.51,75,0,11.18,RU,1696897111
177,namibe,-15.1961,12.1522,66.76,92,71,3.87,AO,1696897111
178,whitehorse,60.7161,-135.0538,52.57,92,100,11.5,CA,1696896986
179,alderetes,-26.8167,-65.1333,78.71,34,0,6.91,AR,1696897112
180,carnarvon,-24.8667,113.6333,73.35,64,93,18.9,AU,1696897112
181,chonchi,-42.6128,-73.8092,48.11,96,100,3.38,CL,1696897113
182,susuman,62.7833,148.1667,16.99,87,78,1.99,RU,1696897113
183,tikapur,28.5,81.1333,71.49,85,0,3.18,NP,1696897114
184,kalemie,-5.9475,29.1947,72.48,71,76,8.12,CD,1696897114
185,hajipur,25.6833,85.2167,82.38,94,40,4.61,IN,1696897114
186,saint-philippe,-21.3585,55.7679,71.19,74,26,3.83,RE,1696897115
187,viedma,-40.8135,-62.9967,61.47,24,100,5.03,AR,1696897115
188,azare,11.6765,10.1948,81.27,32,2,6.11,NG,1696897115
189,inhambane,-23.865,35.3833,70.9,89,81,7.02,MZ,1696897116
190,lulea,65.5842,22.1547,24.87,93,0,0.0,SE,1696897116
191,poli,-3.3333,36.8,61.21,91,66,6.15,TZ,1696897117
192,port hedland,-20.3167,118.5667,87.85,14,0,8.05,AU,1696897117
193,farmington,36.7281,-108.2187,75.88,51,0,11.5,US,1696897117
194,rio verde de mato grosso,-18.9181,-54.8442,83.61,53,25,4.03,BR,1696896940
195,hadibu,12.65,54.0333,80.04,81,10,2.06,YE,1696897118
196,dubbo,-32.25,148.6167,75.33,29,67,5.75,AU,1696897118
197,tarakan,3.3,117.6333,80.24,79,99,6.24,ID,1696897119
198,lompoc,34.6391,-120.4579,71.74,72,0,17.0,US,1696897119
199,yanam,16.7333,82.2167,76.08,91,89,3.53,IN,1696897119
200,sur,22.5667,59.5289,83.05,54,6,10.25,OM,1696897120
201,alice springs,-23.7,133.8833,78.35,11,0,13.8,AU,1696896977
202,cole harbour,44.6724,-63.4751,57.7,93,81,7.0,CA,1696897121
203,iwaki,37.05,140.8833,70.02,85,100,3.0,JP,1696897121
204,richmond,37.5538,-77.4603,56.91,90,100,4.61,US,1696897069
205,vilyuchinsk,52.9306,158.4028,44.92,77,92,3.71,RU,1696897122
206,deschutes river woods,43.9915,-121.3584,61.39,61,75,9.22,US,1696897122
207,saint-pierre,-21.3393,55.4781,71.28,56,0,5.75,RE,1696897123
208,tazacorte,28.629,-17.9293,76.17,73,0,4.61,ES,1696897123
209,heringen,50.888,10.0072,59.81,93,100,4.03,DE,1696897123
210,naze,28.3667,129.4833,77.92,70,100,18.05,JP,1696897124
211,gohadi,26.4261,78.4447,77.11,46,0,8.81,IN,1696897124
212,amurzet,47.6967,131.0981,49.55,45,0,13.98,RU,1696897124
213,muriti,-1.9833,32.9167,77.68,71,98,13.65,TZ,1696897124
214,dunedin,-45.8742,170.5036,51.8,60,17,15.01,NZ,1696896974
215,udachny,66.4167,112.4,37.45,100,98,4.41,RU,1696897125
216,pandan,14.0453,124.1694,80.44,86,99,8.39,PH,1696897125
217,brisas de zicatela,15.8369,-97.0419,84.72,54,75,4.61,MX,1696897126
218,axim,4.8699,-2.2405,77.18,89,77,6.85,GH,1696897126
219,nangwa,-4.4667,35.45,58.39,85,14,7.94,TZ,1696897126
220,quellon,-43.1167,-73.6167,44.89,88,100,8.23,CL,1696897127
221,toliara,-23.35,43.6667,72.19,64,3,8.86,MG,1696897127
222,gizo,-8.103,156.8419,82.74,77,87,7.29,SB,1696897127
223,francisco beltrao,-26.0811,-53.055,58.93,83,0,4.59,BR,1696897128
224,haiku-pauwela,20.9219,-156.3051,86.02,61,40,19.57,US,1696897128
225,batticaloa,7.7102,81.6924,79.12,85,100,8.14,LK,1696897128
226,vila velha,-20.3297,-40.2925,78.75,86,40,16.11,BR,1696896999
227,dali,25.7,100.1833,58.96,97,99,2.8,CN,1696897129
228,saldanha,-33.0117,17.9442,59.05,78,0,10.45,ZA,1696897129
229,vershino-darasunskiy,52.35,115.5167,40.42,57,96,1.59,RU,1696897130
230,malvan,16.0667,73.4667,78.19,90,5,4.29,IN,1696897130
231,grootfontein,-19.5667,18.1167,75.9,16,45,18.25,NA,1696897130
232,dazhou,31.2159,107.5009,61.97,89,100,1.36,CN,1696897131
233,ta`u,-14.2336,-169.5144,80.83,80,80,10.54,AS,1696897131
234,northport,33.229,-87.5772,69.13,52,0,4.61,US,1696897132
235,messini,37.0511,22.0078,70.18,88,0,4.61,GR,1696897132
236,stephenville,32.2207,-98.2023,82.4,41,0,4.61,US,1696897072
237,acarau,-2.8856,-40.12,79.47,79,6,19.15,BR,1696897133
238,dunda,-8.1167,34.25,67.75,52,27,0.83,TZ,1696897133
239,alesund,62.4723,6.1549,50.32,74,100,17.27,NO,1696896860
240,chai buri,8.4622,99.0763,76.75,93,77,0.65,TH,1696897134
241,carauari,-4.8828,-66.8958,84.22,39,41,2.89,BR,1696897134
242,la'ie,21.6477,-157.9253,85.96,65,5,5.01,US,1696897135
243,pawni,20.7833,79.6333,73.0,80,82,1.23,IN,1696897135
244,muisne,0.6,-80.0333,78.03,84,84,7.92,EC,1696897135
245,puerto aysen,-45.4,-72.7,38.53,99,98,4.41,CL,1696897136
246,badger,64.8,-147.5333,33.67,79,100,8.05,US,1696897136
247,ulladulla,-35.35,150.4667,59.7,83,95,4.61,AU,1696897136
248,kokopo,-4.352,152.2633,85.05,68,28,10.36,PG,1696897137
249,tazovsky,67.4667,78.7,39.94,93,87,14.76,RU,1696897137
250,medicine hat,50.0501,-110.6683,77.43,33,40,10.36,CA,1696896992
251,valley city,46.9233,-98.0032,48.72,61,0,4.61,US,1696897138
252,kamensk-shakhtinskiy,48.3178,40.2595,42.12,57,85,10.87,RU,1696897138
253,ambatolampy,-19.3833,47.4167,51.66,84,0,1.36,MG,1696897138
254,berriane,32.8265,3.7669,67.93,55,34,6.08,DZ,1696897139
255,laguna,38.421,-121.4238,73.11,61,0,8.05,US,1696897140
256,mount gambier,-37.8333,140.7667,60.12,55,39,4.68,AU,1696896895
257,kiunga,-6.1219,141.2906,79.99,71,65,3.76,PG,1696897141
258,saudarkrokur,65.7461,-19.6394,36.82,86,42,7.85,IS,1696897141
259,prince albert,53.2001,-105.7677,57.15,54,0,19.57,CA,1696897141
260,kenai,60.5544,-151.2583,50.09,77,0,8.05,US,1696897142
261,villa gesell,-37.2639,-56.973,60.04,65,2,11.52,AR,1696897142
262,sao miguel do araguaia,-13.275,-50.1628,86.25,49,84,2.93,BR,1696897142
263,ouadda,8.0777,22.4007,67.37,98,100,4.88,CF,1696897143
264,nuuk,64.1835,-51.7216,38.01,48,24,23.02,GL,1696896922
265,remire-montjoly,4.9167,-52.2667,75.24,88,0,0.0,GF,1696897144
266,victoria,22.2855,114.1577,77.32,89,99,11.99,HK,1696897144
267,new norfolk,-42.7826,147.0587,60.71,47,21,1.48,AU,1696897144
268,cabo san lucas,22.8909,-109.9124,85.75,76,75,6.91,MX,1696897121
269,wamba,8.9333,8.6,73.85,91,56,1.1,NG,1696897145
270,bozkurt,41.9577,34.0109,55.98,68,100,2.93,TR,1696897145
271,codrington,-38.2667,141.9667,60.13,55,88,6.24,AU,1696897146
272,tamiahua,21.2667,-97.45,76.44,84,83,5.84,MX,1696897146
273,jinghong,21.991,100.7341,70.11,96,99,1.12,CN,1696897146
274,gangaikondan,8.85,77.7833,81.0,74,98,3.51,IN,1696897147
275,nianzishan,47.5167,122.8833,51.84,57,2,2.71,CN,1696897147
276,camana,-16.6228,-72.7111,65.59,82,82,8.01,PE,1696897147
277,hola,51.5377,23.1902,37.58,77,45,5.5,PL,1696897148
278,minas de marcona,-15.2119,-75.1103,58.77,79,74,11.25,PE,1696897148
279,santo antonio,-6.3106,-35.4789,73.02,81,4,10.83,BR,1696897149
280,swakopmund,-22.6833,14.5333,55.98,87,69,1.99,NA,1696897149
281,sao joao da barra,-21.6403,-41.0511,75.29,86,32,10.04,BR,1696897149
282,nar'yan-mar,67.6713,53.087,34.11,75,94,14.0,RU,1696897150
283,natal,-5.795,-35.2094,79.02,78,20,11.5,BR,1696897150
284,prien,30.1819,-93.2738,73.62,61,0,6.91,US,1696897151
285,chimore,-16.9833,-65.1333,80.67,54,62,2.3,BO,1696897151
286,nova sintra,14.8667,-24.7167,76.69,85,78,9.71,CV,1696897151
287,newman,37.3138,-121.0208,73.74,62,96,3.0,US,1696897152
288,gao,16.6362,1.637,86.74,24,2,7.47,ML,1696897152
289,wailua homesteads,22.0669,-159.378,86.43,72,20,13.8,US,1696897152
290,villa dolores,-31.9459,-65.1896,70.03,34,0,6.26,AR,1696897153
291,greater sudbury,46.49,-80.99,41.05,93,100,8.99,CA,1696897110
292,turaif,31.6725,38.6637,73.65,28,75,11.5,SA,1696897153
293,port shepstone,-30.7414,30.455,65.41,94,100,9.46,ZA,1696897153
294,al ghayzah,16.2079,52.176,77.22,81,4,5.26,YE,1696897154
295,taber,49.8167,-112.1518,80.6,22,57,4.61,CA,1696896904
296,utrik,11.2278,169.8474,82.6,70,100,11.56,MH,1696897156
297,basse santa su,13.31,-14.2137,72.72,89,91,10.33,GM,1696897156
298,selkirk,50.1436,-96.8845,48.27,74,2,6.11,CA,1696897156
299,luau,-10.7073,22.2247,69.73,63,79,3.83,AO,1696897157
300,kamyzyak,46.11,48.0736,47.98,70,0,13.42,RU,1696897157
301,rongelap,11.1635,166.8941,82.96,78,83,12.06,MH,1696897157
302,yonggang-up,38.8561,125.4244,57.79,75,0,3.71,KP,1696897158
303,santiago,-33.4569,-70.6483,67.28,48,0,17.27,CL,1696897107
304,wanning,18.8003,110.3967,77.04,85,97,9.08,CN,1696897158
305,charters towers,-20.1,146.2667,76.77,42,1,7.96,AU,1696897159
306,george,-33.963,22.4617,54.95,88,40,5.75,ZA,1696897159
307,sanski most,44.7653,16.6656,62.47,87,93,3.96,BA,1696897159
308,yamada,39.4667,141.95,63.75,95,100,2.26,JP,1696897160
309,ilomantsi,62.6716,30.9328,32.7,97,47,4.32,FI,1696897160
310,visby,57.6409,18.296,32.22,93,20,3.44,SE,1696897160
311,crane,31.3974,-102.3501,78.89,28,77,7.99,US,1696897161
312,tamanrasset,22.785,5.5228,69.71,24,0,3.44,DZ,1696897161
313,beoumi,7.6736,-5.5764,71.44,96,80,2.35,CI,1696897161
314,nouadhibou,20.931,-17.0347,75.18,88,40,12.66,MR,1696896862
315,kourou,5.1552,-52.6478,75.25,75,0,8.5,GF,1696897162
316,ulan bator,47.9077,106.8832,28.53,80,40,0.0,MN,1696897018
317,bambanglipuro,-7.95,110.2833,79.05,77,37,2.53,ID,1696897163
318,puerto leguizamo,-0.1934,-74.7819,77.83,87,97,4.72,CO,1696897163
319,zabid,14.1951,43.3152,85.5,66,2,3.47,YE,1696897163
320,whitby,54.4877,-0.615,61.32,90,88,1.99,GB,1696897164
321,enewetak,11.3474,162.3373,83.3,76,100,8.9,MH,1696897164
322,ningyang,35.7642,116.7914,61.99,48,99,3.15,CN,1696897164
323,puerto deseado,-47.7503,-65.8938,45.77,59,100,20.96,AR,1696897165
324,williamston,35.8546,-77.0555,64.29,63,5,6.55,US,1696897165
325,boca do acre,-8.7522,-67.3978,85.12,36,23,1.59,BR,1696897165
326,tshikapa,-6.4167,20.8,70.27,96,78,0.67,CD,1696897134
327,kerikeri,-35.2268,173.9474,65.91,72,8,5.99,NZ,1696897166
328,pathein,16.7833,94.7333,76.62,95,100,4.94,MM,1696897166
329,khromtau,50.2503,58.4347,39.04,74,85,10.4,KZ,1696897167
330,castillos,-34.1667,-53.8333,57.56,77,0,7.23,UY,1696897167
331,hovd,48.0056,91.6419,44.83,62,52,1.66,MN,1696897168
332,bamboo flat,11.7,92.7167,78.89,94,75,5.75,IN,1696897168
333,kyabe,9.4515,18.9449,75.47,80,83,4.41,TD,1696897168
334,las heras,-46.5419,-68.9359,47.23,32,85,17.83,AR,1696897169
335,mancio lima,-7.6142,-72.8958,71.67,100,100,3.44,BR,1696897169
336,san antonio de pale,-1.4014,5.6325,78.28,85,58,8.84,GQ,1696897169
337,kyzylorda,44.8528,65.5092,57.22,41,0,11.18,KZ,1696897170
338,sillamae,59.3997,27.7547,38.89,68,31,9.73,EE,1696897170
339,tromso,69.6496,18.957,32.02,93,40,2.3,NO,1696897170
340,kemijarvi,66.7131,27.4306,19.76,97,53,1.97,FI,1696897171
341,saurimo,-9.6608,20.3916,64.69,89,61,4.09,AO,1696897171
342,greymouth,-42.4667,171.2,54.97,58,86,11.86,NZ,1696897171
343,kalamnuri,19.6667,77.3333,73.06,69,21,3.56,IN,1696897172
344,fairfax,38.8501,-77.3497,57.76,73,75,10.36,US,1696897172
345,tangalle,6.024,80.7911,77.31,89,99,2.15,LK,1696897172
346,katsuura,35.1333,140.3,66.22,93,100,9.22,JP,1696897173
347,saipan,15.1355,145.701,84.9,84,75,28.77,MP,1696897173
348,tateyama,34.9833,139.8667,69.1,94,75,2.3,JP,1696897173
349,kazlu ruda,54.7667,23.5,35.58,71,24,5.46,LT,1696897174
350,palmer,42.1584,-72.3287,53.15,70,100,6.91,US,1696897174
351,nizhniy odes,63.6445,54.856,32.13,81,100,10.74,RU,1696897174
352,labrador city,52.9463,-66.9114,49.91,87,75,5.75,CA,1696897175
353,trogir,43.5125,16.2517,66.25,72,0,0.0,HR,1696897175
354,juneau,58.3019,-134.4197,52.21,93,100,33.38,US,1696897175
355,saint-joseph,-21.3667,55.6167,70.18,74,23,1.83,RE,1696897176
356,howard springs,-12.497,131.047,86.83,56,68,4.65,AU,1696897176
357,kavieng,-2.5744,150.7967,83.77,76,21,11.54,PG,1696897176
358,gatton,-27.55,152.2833,78.42,37,21,3.22,AU,1696897177
359,pacific grove,36.6177,-121.9166,69.37,75,75,5.99,US,1696897178
360,muynoq,43.7683,59.0214,59.14,72,36,24.23,UZ,1696897179
361,lazaro cardenas,17.9583,-102.2,78.15,92,100,14.83,MX,1696896906
362,lashio,22.9333,97.75,67.51,99,100,1.59,MM,1696897180
363,magadan,59.5667,150.8,35.82,98,100,7.0,RU,1696897180
364,selfoss,63.9331,-20.9971,37.04,70,58,20.24,IS,1696897181
365,queenstown,-31.8976,26.8753,50.88,88,100,5.64,ZA,1696897182
366,la ligua,-32.4524,-71.2311,51.96,89,3,1.9,CL,1696897182
367,nadym,65.5333,72.5167,37.9,88,58,20.02,RU,1696897182
368,namanga,-2.5433,36.7905,68.45,79,49,8.68,KE,1696897183
369,tyukhtet,56.5389,89.3011,52.14,73,100,9.73,RU,1696897183
370,stony plain,53.5334,-114.0021,73.51,35,0,3.44,CA,1696896998
371,port lincoln,-34.7333,135.8667,61.32,68,4,8.1,AU,1696897184
372,hasaki,35.7333,140.8333,70.29,89,100,3.42,JP,1696897184
373,oriximina,-1.7656,-55.8661,87.39,47,29,3.76,BR,1696897184
374,aldama,22.9167,-98.0667,79.79,67,100,4.81,MX,1696897185
375,fort bragg,35.139,-79.006,64.24,50,0,6.91,US,1696897185
376,gazojak,41.1875,61.4036,66.72,22,53,11.72,TM,1696897096
377,happy valley-goose bay,53.3168,-60.3315,55.71,54,100,4.61,CA,1696897186
378,sola,-13.8833,167.55,77.72,77,88,22.3,VU,1696897186
379,prado,-17.3411,-39.2208,76.1,85,22,12.06,BR,1696896932
380,bechar,31.6167,-2.2167,72.03,29,65,4.34,DZ,1696897187
381,playa del ingles,27.7567,-15.5787,85.75,31,62,9.1,ES,1696897187
382,valparaiso,-33.0393,-71.6273,55.04,87,0,6.91,CL,1696897187
383,dadukou,26.5479,101.7054,61.56,95,100,3.36,CN,1696897188
384,yarmouth,41.7057,-70.2286,60.85,65,0,8.05,US,1696897063
385,petropavlovsk-kamchatsky,53.0452,158.6483,43.45,71,75,7.0,RU,1696897188
386,necochea,-38.5473,-58.7368,60.42,48,30,8.86,AR,1696897189
387,huejutla de reyes,21.1333,-98.4167,71.2,92,93,0.94,MX,1696897072
388,kidal,18.4411,1.4078,87.13,15,75,6.6,ML,1696897190
389,coahuayana de hidalgo,18.7,-103.6583,78.24,90,100,1.41,MX,1696897190
390,chibougamau,49.9168,-74.3659,42.42,87,100,13.8,CA,1696897039
391,almeirim,-1.5233,-52.5817,82.13,54,28,3.78,BR,1696897191
392,upington,-28.4478,21.2561,66.58,20,0,3.44,ZA,1696897191
393,ceerigaabo,10.6162,47.368,64.09,42,35,4.41,SO,1696896922
394,lagos,6.5833,3.75,76.87,92,100,2.82,NG,1696897137
395,purulha,15.2667,-90.2,62.76,98,74,2.91,GT,1696897192
396,calama,-22.4667,-68.9333,63.09,16,0,12.66,CL,1696897050
397,cohasset,42.2418,-70.8037,57.04,80,0,6.91,US,1696897193
398,callao,-12.0667,-77.15,67.71,77,100,13.8,PE,1696897193
399,xilin hot,43.9667,116.0333,45.18,79,14,3.94,CN,1696897193
400,elko,41.0002,-115.5012,72.16,19,51,18.99,US,1696896955
401,kolonia town,6.964,158.206,87.91,70,100,3.44,FM,1696897194
402,taman',45.2117,36.7161,54.43,50,100,10.4,RU,1696897194
403,buckhannon,38.994,-80.232,49.86,95,40,4.61,US,1696897194
404,flin flon,54.7682,-101.865,47.19,67,1,6.96,CA,1696897195
405,ancud,-41.8697,-73.8203,47.62,89,100,8.81,CL,1696897195
406,fandriana,-20.2333,47.3833,53.65,76,1,3.47,MG,1696897195
407,eceabat,40.1842,26.3574,53.56,82,0,5.75,TR,1696897196
408,georgievka,49.3314,81.5761,51.26,69,14,5.59,KZ,1696897196
409,mutoko,-17.397,32.2268,60.6,78,0,7.18,ZW,1696897196
410,sydney mines,46.2367,-60.2177,55.4,92,40,2.3,CA,1696897197
411,guanica,17.9716,-66.908,84.9,51,22,7.29,PR,1696897198
412,sitka,57.0531,-135.33,53.49,76,100,19.57,US,1696897198
413,olyokminsk,60.3736,120.4264,40.98,85,94,4.0,RU,1696897198
414,vadso,70.0744,29.7487,28.56,80,75,13.8,NO,1696897200
415,prince george,53.9166,-122.753,68.25,40,100,3.0,CA,1696896468
416,kayangel,8.0823,134.7173,81.21,86,100,24.45,PW,1696897200
417,akureyri,65.6835,-18.0878,40.93,60,75,8.05,IS,1696897201
418,beliator,23.3333,87.2167,77.43,76,57,4.14,IN,1696897201
419,ilovays'k,47.925,38.2024,45.18,44,100,6.98,UA,1696897201
420,tanjung pandan,-2.75,107.65,79.77,74,99,4.29,ID,1696897035
421,suva,-18.1416,178.4415,76.48,61,40,9.22,FJ,1696897203
422,kajiado,-1.8524,36.7768,63.1,81,70,13.06,KE,1696897203
423,villa canas,-34.0057,-61.6076,73.94,38,41,13.8,AR,1696897204
424,ha'il,27.5219,41.6907,77.02,23,0,2.3,SA,1696897204
425,kapit,2.0167,112.9333,75.38,97,79,1.05,MY,1696897204
426,tofol,5.3248,163.0078,87.58,70,75,16.11,FM,1696897205
427,la passe,45.5549,-0.8967,57.43,64,6,2.24,FR,1696897205
428,ataq,14.5377,46.8319,69.12,82,5,4.59,YE,1696897206
429,mujiayingzi,42.1167,118.7833,50.95,59,11,4.38,CN,1696897206
430,clodomira,-27.5744,-64.1311,81.03,25,0,12.26,AR,1696897206
431,new plymouth,-39.0667,174.0833,55.31,69,39,18.03,NZ,1696897207
432,onega,63.9061,38.1404,38.75,82,100,8.99,RU,1696897208
433,egilsstadir,65.2653,-14.3948,48.11,71,75,9.22,IS,1696897208
434,kapa'a,22.0752,-159.319,87.78,72,20,13.8,US,1696897209
435,ribeira brava,32.65,-17.0667,82.71,29,71,5.57,PT,1696897209
436,kulhudhuffushi,6.6221,73.07,81.9,77,63,4.47,MV,1696897209
437,kloulklubed,7.0419,134.2556,81.1,88,100,24.23,PW,1696897210
438,urangan,-25.3,152.9,71.56,48,0,5.1,AU,1696897210
439,jaffna,9.6685,80.0074,81.77,82,65,13.47,LK,1696897211
440,ji'an,27.1172,114.9793,62.74,90,99,5.55,CN,1696897211
441,kindu,-2.95,25.95,71.92,99,99,2.15,CD,1696897111
442,safford,32.834,-109.7076,85.12,24,0,8.05,US,1696897212
443,nizhnesortymskiy,62.4397,71.7603,38.66,77,30,21.74,RU,1696897038
444,big rapids,43.6981,-85.4837,48.27,67,100,12.66,US,1696897212
445,paracuru,-3.41,-39.0306,81.1,80,3,14.07,BR,1696897213
446,fort wellington,6.4,-57.6,81.18,76,1,10.92,GY,1696897213
447,sabang,5.8933,95.3214,81.14,77,74,3.71,ID,1696897214
448,hithadhoo,-0.6,73.0833,81.32,79,77,17.2,MV,1696897214
449,broken hill,-31.95,141.4333,68.86,52,3,0.6,AU,1696897214
450,salalah,17.0151,54.0924,78.89,83,20,3.44,OM,1696897215
451,kharp,66.8014,65.8081,40.24,97,100,2.42,RU,1696897215
452,causeni,46.6442,29.4139,45.63,45,97,3.24,MD,1696897216
453,colonia,50.9333,6.95,59.83,86,0,1.14,DE,1696897216
454,la ronge,55.1001,-105.2842,55.65,54,0,13.8,CA,1696897216
455,wusong,30.95,117.7833,65.3,77,95,3.02,CN,1696897217
456,yatou,37.15,122.3833,64.33,63,6,12.82,CN,1696897217
457,krusevac,43.58,21.3339,53.96,58,82,1.23,RS,1696897217
458,panadura,6.7132,79.9026,77.58,90,100,7.34,LK,1696897218
459,beira,-19.8436,34.8389,75.29,94,40,6.91,MZ,1696897218
460,mana,5.6592,-53.7767,79.75,76,0,10.4,GF,1696897219
461,as sulayyil,20.4607,45.5779,88.05,28,44,5.82,SA,1696897220
462,mora,11.0461,14.1401,81.93,33,55,3.91,CM,1696897220
463,puerto armuelles,8.2833,-82.8667,84.16,74,98,5.01,PA,1696897221
464,redange-sur-attert,49.7656,5.8908,58.86,92,79,1.59,LU,1696897221
465,keren,15.7778,38.4581,70.3,27,1,6.67,ER,1696897221
466,tweed heads,-28.1817,153.547,79.21,54,57,14.97,AU,1696897063
467,san luis,-33.295,-66.3356,71.78,30,3,11.99,AR,1696897222
468,umm kaddadah,13.6017,26.6876,91.45,25,14,6.71,SD,1696897222
469,novyy urgal,51.0736,132.5642,37.99,64,4,0.87,RU,1696897223
470,chateaubriant,47.7167,-1.3833,53.31,52,7,1.57,FR,1696897223
471,rosarito,32.3333,-117.0333,80.24,68,31,12.15,MX,1696897223
472,constitucion,-35.3333,-72.4167,51.17,88,55,12.3,CL,1696897224
473,belmonte,-15.8631,-38.8828,76.64,84,6,12.12,BR,1696897224
474,ghat,24.9647,10.1728,72.91,29,19,4.29,LY,1696897224
475,urrao,6.3152,-76.1342,61.41,92,98,1.36,CO,1696897225
476,vizinga,61.0749,50.1031,34.77,96,100,7.0,RU,1696897225
477,bouna,9.2667,-3.0,72.72,94,53,4.18,CI,1696897225
478,mount pearl,47.5166,-52.7813,49.14,97,100,6.91,CA,1696897226
479,altai,46.3722,96.2583,37.53,52,78,1.59,MN,1696897022
480,baikunthpur,23.25,82.55,69.48,77,47,2.17,IN,1696897226
481,gebeit,21.0667,36.3167,83.41,18,0,3.58,SD,1696897227
482,zeya,53.75,127.2667,38.48,72,53,1.05,RU,1696897227
483,waat,51.1454,6.4958,59.77,94,93,0.0,DE,1696897228
484,nova vicosa,-17.8919,-39.3719,76.3,85,60,13.51,BR,1696897197
485,kenora,49.8167,-94.4337,45.57,53,0,6.91,CA,1696896964
486,west fargo,46.875,-96.9004,51.8,59,0,8.05,US,1696897229
487,mao,39.8885,4.2658,64.96,94,0,0.0,ES,1696897229
488,nenjiang,49.1833,125.2167,49.57,47,0,4.0,CN,1696897230
489,buala,-8.145,159.5921,81.32,84,100,14.74,SB,1696897230
490,coquimbo,-29.9533,-71.3436,56.93,88,100,4.61,CL,1696897047
491,bhamo,24.2667,97.2333,72.48,99,99,0.87,MM,1696897231
492,port blair,11.6667,92.75,78.84,94,75,5.75,IN,1696897129
493,acapulco de juarez,16.8634,-99.8901,80.42,83,100,6.91,MX,1696896935
494,vila franca do campo,37.7167,-25.4333,70.21,89,33,20.71,PT,1696897232
495,mejit,10.2753,170.8646,82.58,74,95,12.93,MH,1696897232
496,azna,33.6095,48.9307,62.06,40,45,2.37,IR,1696897233
497,yelizovo,53.1873,158.3805,44.8,100,75,4.47,RU,1696897233
498,machico,32.7,-16.7667,82.71,48,20,3.44,PT,1696897234
499,altdorf,49.3875,11.3572,55.81,87,95,3.44,DE,1696897234
500,mthatha,-31.5889,28.7844,54.68,96,100,4.52,ZA,1696897234
501,sinop,41.7711,34.8709,49.03,83,91,2.04,TR,1696897235
502,sydney,-33.8679,151.2073,71.55,71,40,11.5,AU,1696897161
503,mercedes,-34.6515,-59.4307,71.85,42,48,13.56,AR,1696897235
504,monaragala,6.8714,81.3487,74.55,94,98,3.78,LK,1696897236
505,sechura,-5.5569,-80.8222,70.84,74,20,17.65,PE,1696897236
506,kendari,-3.945,122.4989,81.28,64,92,1.23,ID,1696897236
507,peace river,56.2501,-117.286,71.91,46,75,0.0,CA,1696897125
508,griffith,41.5284,-87.4237,52.84,43,0,8.05,US,1696897237
509,aliveri,38.4167,24.0333,66.42,76,0,4.12,GR,1696897237
510,safaga,26.7292,33.9365,83.82,50,11,14.81,EG,1696897238
511,itaituba,-4.2761,-55.9836,82.53,54,80,1.86,BR,1696897143
512,sao felix do xingu,-6.6447,-51.995,83.32,53,82,2.86,BR,1696897238
513,mulayjah,27.271,48.4242,83.7,22,0,8.61,SA,1696897239
514,acajutla,13.5928,-89.8275,81.34,85,94,5.23,SV,1696897239
515,okhotsk,59.3833,143.3,36.12,91,18,20.13,RU,1696897239
516,bowen,-20.0167,148.2333,75.4,52,6,11.92,AU,1696897240
517,khovd,48.0056,91.6419,44.83,62,52,1.66,MN,1696897240
518,santa isabel,-23.3156,-46.2214,67.71,96,100,2.86,BR,1696897240
519,igoumenitsa,39.5039,20.2656,68.67,47,0,5.26,GR,1696897241
520,adrar,20.5022,-10.0711,88.18,14,96,10.25,MR,1696897241
521,tarnogskiy gorodok,60.4997,43.5761,34.16,97,100,7.09,RU,1696897158
522,arteche,12.2645,125.4048,81.55,83,97,5.21,PH,1696897242
523,macapa,0.0389,-51.0664,84.18,74,20,13.8,BR,1696896959
524,cuito,-12.3833,16.9333,61.45,88,83,3.22,AO,1696897243
525,rijau,11.103,5.2507,76.37,67,73,2.42,NG,1696897243
526,fortuna,40.5982,-124.1573,65.93,94,100,0.0,US,1696897243
527,chumphon,10.3333,98.8333,72.59,94,58,2.15,TH,1696897244
528,polyarnyy,69.1989,33.4478,32.36,80,98,13.38,RU,1696897244
529,kapuskasing,49.4169,-82.4331,39.29,93,100,6.91,CA,1696897244
530,harstad,68.799,16.5293,36.16,91,62,4.0,NO,1696897245
531,mawlaik,23.6333,94.4167,73.42,99,60,1.1,MM,1696897245
532,songjianghe,42.1859,127.479,46.98,88,51,0.78,CN,1696897245
533,tobol'sk,58.2,68.2667,41.61,82,100,8.99,RU,1696897246
534,tejupilco de hidalgo,18.9,-100.15,69.13,89,99,2.46,MX,1696896950
535,manta,-0.95,-80.7333,76.78,78,100,6.91,EC,1696897246
536,jammu,32.7333,74.8667,70.03,42,4,5.93,IN,1696897247
537,almazan,41.4865,-2.5309,55.51,59,99,1.97,ES,1696897247
538,sao gabriel da cachoeira,-0.1303,-67.0892,79.59,67,2,2.84,BR,1696897247
539,petauke,-14.2426,31.3253,75.61,40,4,11.72,ZM,1696897248
540,mili,6.0815,171.735,82.2,75,99,0.98,MH,1696897248
541,sinabang,2.4803,96.3801,78.21,84,100,3.83,ID,1696897248
542,bako,5.7833,36.5667,66.42,66,43,4.25,ET,1696897249
543,huarmey,-10.0681,-78.1522,66.58,88,98,8.46,PE,1696897249
544,vilyuysk,63.7553,121.6247,38.17,88,100,8.99,RU,1696897250
545,nyurba,63.2842,118.3319,40.1,90,100,8.01,RU,1696897250
546,borogontsy,62.6683,131.1683,28.29,98,100,4.0,RU,1696897251
547,jaen,38.0,-3.5,68.25,47,3,2.62,ES,1696897251
548,luwuk,-0.9516,122.7875,83.55,60,58,8.79,ID,1696897251
549,tadine,-21.55,167.8833,73.53,52,83,10.69,NC,1696897252
550,rudbar,30.15,62.6,74.05,17,0,3.24,AF,1696897252
551,turan,16.0678,108.2208,76.98,94,75,1.14,VN,1696897252
552,kalmunai,7.4167,81.8167,78.67,87,100,9.6,LK,1696897253
553,grand rapids,42.9634,-85.6681,52.02,65,75,8.05,US,1696896979
554,kone,-21.0595,164.8658,78.73,45,82,4.0,NC,1696897253
555,emerald,-23.5333,148.1667,77.34,44,0,10.04,AU,1696897254
556,gela,37.0803,14.2307,75.27,53,0,4.32,IT,1696897254
557,mossel bay,-34.1831,22.146,57.13,84,44,16.87,ZA,1696897254
558,teknaf,20.8624,92.3058,76.96,90,61,3.65,BD,1696897255
559,jonuta,18.0833,-92.1333,79.66,89,81,2.55,MX,1696897255
560,ar ruways,24.1103,52.7306,86.34,69,0,8.79,AE,1696897255
